{
  "activities": [
    {
      "address": "3416 19th St, San Francisco, CA 94110, United States",
      "location": "San Francisco",
      "name": "Lazy Bear",
      "tags": [
        "restaurant"
      ]
    },
    {
      "address": "1965 Al Scoma Way, San Francisco, CA 94133, United States",
      "location": "San Francisco",
      "name": "Scoma's Restaurant",
      "tags": [
        "restaurant"
      ]
    },
    {
      "address": "552 Green St, San Francisco, CA 94133, United States",
      "location": "San Francisco",
      "name": "Sotto Mare",
      "tags": [
        "restaurant"
      ]
    },
    {
      "address": "39 Pier, San Francisco, CA 94133, United States",
      "location": "San Francisco",
      "name": "Fog Harbor Fish House",
      "tags": [
        "restaurant"
      ]
    },
    {
      "address": "https://lamarcebicheria.com/san-francisco, Ferry Plaza #1/2, San Francisco, CA 94111, United States",
      "location": "San Francisco",
      "name": "La Mar Cocina Peruana San Francisco",
      "tags": [
        "restaurant"
      ]
    },
    {
      "address": "871 Sutter St, San Francisco, CA 94109, United States",
      "location": "San Francisco",
      "name": "Liholiho Yacht Club",
      "tags": [
        "restaurant"
      ]
    },
    {
      "address": "199 Gough St, San Francisco, CA 94102, United States",
      "location": "San Francisco",
      "name": "Rich Table",
      "tags": [
        "restaurant"
      ]
    },
    {
      "address": "1529 Fillmore St, San Francisco, CA 94115, United States",
      "location": "San Francisco",
      "name": "State Bird Provisions",
      "tags": [
        "restaurant"
      ]
    },
    {
      "address": "2401 Harrison St, San Francisco, CA 94110, United States",
      "location": "San Francisco",
      "name": "Flour + Water",
      "tags": [
        "restaurant"
      ]
    },
    {
      "address": "1906 Van Ness Ave, San Francisco, CA 94109, United States",
      "location": "San Francisco",
      "name": "House of Prime Rib",
      "tags": [
        "restaurant"
      ]
    },
    {
      "address": "1 Mission St, San Francisco, CA 94105, United States",
      "location": "San Francisco",
      "name": "Boulevard",
      "tags": [
        "restaurant"
      ]
    },
    {
      "address": "200 Jackson St, San Francisco, CA 94111, United States",
      "location": "San Francisco",
      "name": "Kokkari Estiatorio",
      "tags": [
        "restaurant"
      ]
    },
    {
      "address": "Ferry Building, #11, San Francisco, CA 94111, United States",
      "location": "San Francisco",
      "name": "Hog Island Oyster Co.",
      "tags": [
        "restaurant"
      ]
    },
    {
      "address": "22 Hawthorne St, San Francisco, CA 94105, United States",
      "location": "San Francisco",
      "name": "Benu",
      "tags": [
        "restaurant"
      ]
    },
    {
      "address": "3640 Sacramento St, San Francisco, CA 94118, United States",
      "location": "San Francisco",
      "name": "Spruce",
      "tags": [
        "restaurant"
      ]
    },
    {
      "address": "708 Bush St, San Francisco, CA 94108, United States",
      "location": "San Francisco",
      "name": "Sons & Daughters",
      "tags": [
        "restaurant"
      ]
    },
    {
      "address": "652 Polk St, San Francisco, CA 94102, United States",
      "location": "San Francisco",
      "name": "Brenda's French Soul Food",
      "tags": [
        "restaurant"
      ]
    },
    {
      "address": "1658 Market St, San Francisco, CA 94102, United States",
      "location": "San Francisco",
      "name": "Zuni Caf\u00e9",
      "tags": [
        "restaurant"
      ]
    },
    {
      "address": "360 Jessie St, San Francisco, CA 94103, United States",
      "location": "San Francisco",
      "name": "The Cavalier",
      "tags": [
        "restaurant"
      ]
    },
    {
      "address": "355 11th St, San Francisco, CA 94103, United States",
      "location": "San Francisco",
      "name": "Californios",
      "tags": [
        "restaurant"
      ]
    },
    {
      "address": "55 Music Concourse Dr, San Francisco, CA 94118, United States",
      "location": "San Francisco",
      "name": "California Academy of Sciences",
      "tags": [
        "museum"
      ]
    },
    {
      "address": "50 Hagiwara Tea Garden Dr, San Francisco, CA 94118, United States",
      "location": "San Francisco",
      "name": "de Young Museum",
      "tags": [
        "museum"
      ]
    },
    {
      "address": "Pier 15 Embarcadero at, Green St, San Francisco, CA 94111, United States",
      "location": "San Francisco",
      "name": "Exploratorium",
      "tags": [
        "museum"
      ]
    },
    {
      "address": "100 34th Ave, San Francisco, CA 94121, United States",
      "location": "San Francisco",
      "name": "Legion of Honor",
      "tags": [
        "museum"
      ]
    },
    {
      "address": "151 3rd St, San Francisco, CA 94103, United States",
      "location": "San Francisco",
      "name": "San Francisco Museum of Modern Art",
      "tags": [
        "museum"
      ]
    },
    {
      "address": "104 Montgomery St, San Francisco, CA 94129, United States",
      "location": "San Francisco",
      "name": "The Walt Disney Family Museum",
      "tags": [
        "museum"
      ]
    },
    {
      "address": "200 Larkin St, San Francisco, CA 94102, United States",
      "location": "San Francisco",
      "name": "Asian Art Museum",
      "tags": [
        "museum"
      ]
    },
    {
      "address": "221 4th St, San Francisco, CA 94103, United States",
      "location": "San Francisco",
      "name": "Children's Creativity Museum",
      "tags": [
        "museum"
      ]
    },
    {
      "address": "1201 Mason St, San Francisco, CA 94108, United States",
      "location": "San Francisco",
      "name": "Cable Car Museum",
      "tags": [
        "museum"
      ]
    },
    {
      "address": "Pier 45, San Francisco, CA 94133, United States",
      "location": "San Francisco",
      "name": "Mus\u00e9e M\u00e9canique",
      "tags": [
        "museum"
      ]
    },
    {
      "address": "45 Pier, San Francisco, CA 94133, United States",
      "location": "San Francisco",
      "name": "USS Pampanito Museum and Memorial",
      "tags": [
        "museum"
      ]
    },
    {
      "address": "Pier 35, San Francisco, CA 94133, United States",
      "location": "San Francisco",
      "name": "SS Jeremiah O'Brien",
      "tags": [
        "museum"
      ]
    },
    {
      "address": "San Francisco, CA 94109, United States",
      "location": "San Francisco",
      "name": "San Francisco Maritime National Historical Park",
      "tags": [
        "museum"
      ]
    },
    {
      "address": "540 Broadway, San Francisco, CA 94133, United States",
      "location": "San Francisco",
      "name": "The Beat Museum",
      "tags": [
        "museum"
      ]
    },
    {
      "address": "781 Beach St, San Francisco, CA 94109, United States",
      "location": "San Francisco",
      "name": "Cartoon Art Museum",
      "tags": [
        "museum"
      ]
    },
    {
      "address": "77 Steuart St, San Francisco, CA 94105, United States",
      "location": "San Francisco",
      "name": "San Francisco Railway Museum",
      "tags": [
        "museum"
      ]
    },
    {
      "address": "1025 Market St, San Francisco, CA 94103, United States",
      "location": "San Francisco",
      "name": "International Art Museum of America",
      "tags": [
        "museum"
      ]
    },
    {
      "address": "4127 18th St, San Francisco, CA 94114, United States",
      "location": "San Francisco",
      "name": "GLBT Historical Society Museum",
      "tags": [
        "museum"
      ]
    },
    {
      "address": "965 Clay St, San Francisco, CA 94108, United States",
      "location": "San Francisco",
      "name": "Chinese Historical Society of America Museum",
      "tags": [
        "museum"
      ]
    },
    {
      "address": "Pier 15, The Embarcadero, San Francisco, CA 94111, United States",
      "location": "San Francisco",
      "name": "Pier 15",
      "tags": [
        "museum"
      ]
    },
    {
      "address": "San Francisco, CA, United States",
      "location": "San Francisco",
      "name": "Golden Gate Park",
      "tags": [
        "park"
      ]
    },
    {
      "address": "Dolores St &, 19th St, San Francisco, CA 94114, United States",
      "location": "San Francisco",
      "name": "Mission Dolores Park",
      "tags": [
        "park"
      ]
    },
    {
      "address": "Coit Tower, 1 Telegraph Hill Blvd, San Francisco, CA 94133, United States",
      "location": "San Francisco",
      "name": "Pioneer Park",
      "tags": [
        "park"
      ]
    },
    {
      "address": "1199 9th Ave, San Francisco, CA 94122, United States",
      "location": "San Francisco",
      "name": "San Francisco Botanical Garden",
      "tags": [
        "park"
      ]
    },
    {
      "address": "California, United States",
      "location": "San Francisco",
      "name": "Golden Gate National Recreation Area",
      "tags": [
        "park"
      ]
    },
    {
      "address": "Buena Vista &, Haight St, San Francisco, CA 94117, United States",
      "location": "San Francisco",
      "name": "Buena Vista Park",
      "tags": [
        "park"
      ]
    },
    {
      "address": "Gough St &, Washington St, San Francisco, CA 94109, United States",
      "location": "San Francisco",
      "name": "Lafayette Park",
      "tags": [
        "park"
      ]
    },
    {
      "address": "Vallejo & Taylor, Vallejo St., San Francisco, CA 94133, United States",
      "location": "San Francisco",
      "name": "Ina Coolbrith Park",
      "tags": [
        "park"
      ]
    },
    {
      "address": "San Francisco, CA 94129, United States",
      "location": "San Francisco",
      "name": "Presidio of San Francisco",
      "tags": [
        "park"
      ]
    },
    {
      "address": "Twin Peaks Blvd, San Francisco, CA 94114, United States",
      "location": "San Francisco",
      "name": "Tank Hill Park",
      "tags": [
        "park"
      ]
    },
    {
      "address": "Roosevelt Way &, Museum Way, San Francisco, CA 94114, United States",
      "location": "San Francisco",
      "name": "Corona Heights Park",
      "tags": [
        "park"
      ]
    },
    {
      "address": "Hayes St, San Francisco, CA 94117, United States",
      "location": "San Francisco",
      "name": "Alamo Square Park",
      "tags": [
        "park"
      ]
    },
    {
      "address": "Elk St and, Chenery St, San Francisco, CA 94127, United States",
      "location": "San Francisco",
      "name": "Glen Canyon Park",
      "tags": [
        "park"
      ]
    },
    {
      "address": "San Francisco, CA 94129, United States",
      "location": "San Francisco",
      "name": "Crissy Field",
      "tags": [
        "park"
      ]
    },
    {
      "address": "Bernal Heights Blvd, San Francisco, CA 94110, United States",
      "location": "San Francisco",
      "name": "Bernal Heights Park",
      "tags": [
        "park"
      ]
    },
    {
      "address": "The Embarcadero & Folsom St, San Francisco, CA 94105, United States",
      "location": "San Francisco",
      "name": "Rincon Park",
      "tags": [
        "park"
      ]
    },
    {
      "address": "Russian Hill Park, Bay St &, Larkin St, San Francisco, CA 94109, United States",
      "location": "San Francisco",
      "name": "Francisco Park",
      "tags": [
        "park"
      ]
    },
    {
      "address": "750 Howard St, San Francisco, CA 94103, United States",
      "location": "San Francisco",
      "name": "Yerba Buena Gardens",
      "tags": [
        "park"
      ]
    },
    {
      "address": "100 John F Shelley Dr, San Francisco, CA 94134, United States",
      "location": "San Francisco",
      "name": "John McLaren Park",
      "tags": [
        "park"
      ]
    },
    {
      "address": "Filbert St & Stockton Street, San Francisco, CA 94133, United States",
      "location": "San Francisco",
      "name": "Washington Square",
      "tags": [
        "park"
      ]
    }
  ],
  "date_range": [
    "2024-06-15",
    "2024-06-17"
  ],
  "location": "San Francisco"
}